[{"id":1,"name":"Mała pętla Bieszczadzka","description":"Mała pętla Bieszczadzka is a shorter variant of the famous loop road in the Bieszczady mountains. The loop takes us around the Solina lake, giving us a good taste of mountainous terrain we can expect on the bigger loop.","coordinates_json_string":"[{\"lat\":49.470003,\"lng\":22.328589},{\"lat\":49.321988,\"lng\":22.668264},{\"lat\":49.304531,\"lng\":22.416348},{\"lat\":49.467955,\"lng\":22.320365}]","date_open_day":1,"date_open_month":1,"date_closed_day":1,"date_closed_month":1,"open_all_year":true,"time_to_complete_h":3,"time_to_complete_m":30,"difficulty":5,"user_id":10,"created_at":"2022-01-20T12:13:43.162Z","updated_at":"2022-01-20T13:46:42.909Z","score":3.375,"distance":91.551,"average_lng":22.4333915,"average_lat":49.39111925,"point_of_interests":[{"id":21,"name":"LOTOS fuel","description":"It is advised to tank here before departing. Gas stations in more remote areas might have fuel of questionable quality","latitude":49.473520376223156,"longitude":22.324326038360596,"variant":"FUEL","moto_route_id":1,"created_at":"2022-01-20T14:14:06.691Z","updated_at":"2022-01-20T14:14:06.691Z","coordinates":{"lat":49.473520376223156,"lng":22.324326038360596}},{"id":22,"name":"Korbania","description":"Small detour to a 1 hour each way hike to one of the best vistas in the area. There is a wooden tower on the summit that provides a great view of the surrounding area.","latitude":49.28353787973614,"longitude":22.371347695360697,"variant":"VISTA","moto_route_id":1,"created_at":"2022-01-20T14:14:06.696Z","updated_at":"2022-01-20T14:14:06.696Z","coordinates":{"lat":49.28353787973614,"lng":22.371347695360697}},{"id":23,"name":"Czatownia bistro","description":"The only restaurant on this side of the loop, although you might find food in hotels, which there is plenty of along the way.","latitude":49.32484759774376,"longitude":22.670510604297796,"variant":"FOOD","moto_route_id":1,"created_at":"2022-01-20T14:14:06.699Z","updated_at":"2022-01-20T14:14:06.699Z","coordinates":{"lat":49.32484759774376,"lng":22.670510604297796}},{"id":24,"name":"Mountain bends","description":"Two 180 degree turns that might pose some challenge to inexperienced motorcyclists.","latitude":49.298148654041576,"longitude":22.598833077480283,"variant":"DANGER","moto_route_id":1,"created_at":"2022-01-20T14:14:06.702Z","updated_at":"2022-01-20T14:14:06.702Z","coordinates":{"lat":49.298148654041576,"lng":22.598833077480283}},{"id":25,"name":"Abandoned orthodox church","description":"Abandoned building - Cerkiew parafialna pw Przemienienia Pańskiego ","latitude":49.38439968379325,"longitude":22.37409213737854,"variant":"URBEX","moto_route_id":1,"created_at":"2022-01-20T14:14:06.705Z","updated_at":"2022-01-20T14:14:06.705Z","coordinates":{"lat":49.38439968379325,"lng":22.37409213737854}}],"coordinates":[{"lat":49.470003,"lng":22.328589},{"lat":49.321988,"lng":22.668264},{"lat":49.304531,"lng":22.416348},{"lat":49.467955,"lng":22.320365}],"average_point":{"lng":22.4333915,"lat":49.39111925}},{"id":2,"name":"Duża pętla Bieszczadzka","description":"Duża pętla Bieszczadzka is a longer variant of the famous loop road in the Bieszczady mountains. Constant hikes and descends, fantastic turns and beautiful scenery place it in the 'must ride' category of Polish motorcycle routes. The bigger loop also takes us deeper into the mountains and forests of the Bieszczady national park.","coordinates_json_string":"[{\"lat\":49.470003,\"lng\":22.328589},{\"lat\":49.106309,\"lng\":22.649962},{\"lat\":49.213745,\"lng\":22.327127},{\"lat\":49.467955,\"lng\":22.320365}]","date_open_day":1,"date_open_month":1,"date_closed_day":1,"date_closed_month":1,"open_all_year":true,"time_to_complete_h":5,"time_to_complete_m":30,"difficulty":4,"user_id":26,"created_at":"2022-01-20T12:13:43.179Z","updated_at":"2022-01-20T14:12:24.765Z","score":3.8,"distance":138.738,"average_lng":22.40651075,"average_lat":49.314503,"point_of_interests":[{"id":16,"name":"LOTOS fuel","description":"It is advised to tank here before departing. Gas stations in more remote areas might have fuel of questionable quality.","latitude":49.473520376223156,"longitude":22.324326038360596,"variant":"FUEL","moto_route_id":2,"created_at":"2022-01-20T14:12:24.770Z","updated_at":"2022-01-20T14:12:24.770Z","coordinates":{"lat":49.473520376223156,"lng":22.324326038360596}},{"id":17,"name":"Przystanek Smerek","description":"Fantastic local food.","latitude":49.17587225885242,"longitude":22.43809172337485,"variant":"FOOD","moto_route_id":2,"created_at":"2022-01-20T14:12:24.773Z","updated_at":"2022-01-20T14:12:24.773Z","coordinates":{"lat":49.17587225885242,"lng":22.43809172337485}},{"id":18,"name":"Mountain turns","description":"A couple big turns that might cause problems if the road is wet","latitude":49.13905323546327,"longitude":22.55460192918165,"variant":"DANGER","moto_route_id":2,"created_at":"2022-01-20T14:12:24.776Z","updated_at":"2022-01-20T14:12:24.776Z","coordinates":{"lat":49.13905323546327,"lng":22.55460192918165}},{"id":19,"name":"Mountain turns with a view","description":"Beautiful scenery as you descend down a hill","latitude":49.1202348693943,"longitude":22.60498158099033,"variant":"VISTA","moto_route_id":2,"created_at":"2022-01-20T14:12:24.778Z","updated_at":"2022-01-20T14:12:24.778Z","coordinates":{"lat":49.1202348693943,"lng":22.60498158099033}},{"id":20,"name":"Hike to IWW mass graves","description":"Nice hike on lesser known trails of Bieszczady","latitude":49.19448573771291,"longitude":22.578465083684037,"variant":"OTHER","moto_route_id":2,"created_at":"2022-01-20T14:12:24.781Z","updated_at":"2022-01-20T14:12:24.781Z","coordinates":{"lat":49.19448573771291,"lng":22.578465083684037}}],"coordinates":[{"lat":49.470003,"lng":22.328589},{"lat":49.106309,"lng":22.649962},{"lat":49.213745,"lng":22.327127},{"lat":49.467955,"lng":22.320365}],"average_point":{"lng":22.40651075,"lat":49.314503}},{"id":3,"name":"Jeziorsko","description":"A ride around the Jeziorsko artificial lake. Not very overwhelming. It is very uniqie to go there after September ends, as the lake is being drained of water from the winter. If you own a dirt bike you can try riding on the lake bed.","coordinates_json_string":"[{\"lat\":51.691263,\"lng\":18.974299},{\"lat\":51.716471,\"lng\":18.624769},{\"lat\":51.864877,\"lng\":18.674026},{\"lat\":51.830279,\"lng\":18.875813}]","date_open_day":1,"date_open_month":1,"date_closed_day":1,"date_closed_month":1,"open_all_year":true,"time_to_complete_h":2,"time_to_complete_m":10,"difficulty":1,"user_id":15,"created_at":"2022-01-20T12:13:43.188Z","updated_at":"2022-01-20T14:19:37.242Z","score":3.2727272727272725,"distance":61.339,"average_lng":18.787226750000002,"average_lat":51.7757225,"point_of_interests":[{"id":26,"name":"Restaurants in the area","description":"This area has a couple nice restaurants, some of them with a view of the lake","latitude":51.854564556585046,"longitude":18.675635812277868,"variant":"FOOD","moto_route_id":3,"created_at":"2022-01-20T14:19:37.246Z","updated_at":"2022-01-20T14:19:37.246Z","coordinates":{"lat":51.854564556585046,"lng":18.675635812277868}},{"id":27,"name":"Water recreation","description":"Many recreation centers in the area can offer kayaks, jet-skis and more","latitude":51.85355727629189,"longitude":18.675979135031774,"variant":"OTHER","moto_route_id":3,"created_at":"2022-01-20T14:19:37.250Z","updated_at":"2022-01-20T14:19:37.250Z","coordinates":{"lat":51.85355727629189,"lng":18.675979135031774}},{"id":28,"name":"Marina and beach","description":"Nice marina for sailing yachts, especially stunning when the lake is drained.","latitude":51.804217468968254,"longitude":18.65978418063748,"variant":"VISTA","moto_route_id":3,"created_at":"2022-01-20T14:19:37.254Z","updated_at":"2022-01-20T14:19:37.254Z","coordinates":{"lat":51.804217468968254,"lng":18.65978418063748}}],"coordinates":[{"lat":51.691263,"lng":18.974299},{"lat":51.716471,"lng":18.624769},{"lat":51.864877,"lng":18.674026},{"lat":51.830279,"lng":18.875813}],"average_point":{"lng":18.787226750000002,"lat":51.7757225}}]